{
"type": "FeatureCollection",
"crs": { "type": "name", "properties": { "name": "urn:ogc:def:crs:OGC:1.3:CRS84" } },
                                                                                
"features": [
{ "type": "Feature", "properties": { "URB_NAME": "Butha-Buthe", "NOTES": "Urban", "POPUL_DENS": null, "DENSITY": null }, "geometry": { "type": "Point", "coordinates": [ 28.246848384455618, -28.765421324026484 ] } },
{ "type": "Feature", "properties": { "URB_NAME": "Mokhotlong", "NOTES": "Urban", "POPUL_DENS": null, "DENSITY": null }, "geometry": { "type": "Point", "coordinates": [ 29.066460833044051, -29.286949873090311 ] } },
{ "type": "Feature", "properties": { "URB_NAME": "Khabo", "NOTES": "Growth Centres", "POPUL_DENS": null, "DENSITY": null }, "geometry": { "type": "Point", "coordinates": [ 28.266717535720947, -28.857309359383645 ] } },
{ "type": "Feature", "properties": { "URB_NAME": "Hlotse (Leribe)", "NOTES": "Urban", "POPUL_DENS": null, "DENSITY": null }, "geometry": { "type": "Point", "coordinates": [ 28.049395643336432, -28.866000954681667 ] } },
{ "type": "Feature", "properties": { "URB_NAME": "Khanyane", "NOTES": "Growth Centres", "POPUL_DENS": null, "DENSITY": null }, "geometry": { "type": "Point", "coordinates": [ 28.106520179286598, -28.888352226115948 ] } },
{ "type": "Feature", "properties": { "URB_NAME": "Pitseng", "NOTES": "Growth Centres", "POPUL_DENS": null, "DENSITY": null }, "geometry": { "type": "Point", "coordinates": [ 28.222010859175683, -29.010042036080602 ] } },
{ "type": "Feature", "properties": { "URB_NAME": "Maputsoe", "NOTES": "Urban", "POPUL_DENS": null, "DENSITY": null }, "geometry": { "type": "Point", "coordinates": [ 27.907825910997349, -28.885868290621932 ] } },
{ "type": "Feature", "properties": { "URB_NAME": "Mapoteng", "NOTES": "Growth Centres", "POPUL_DENS": null, "DENSITY": null }, "geometry": { "type": "Point", "coordinates": [ 27.969917166448006, -29.111863317335953 ] } },
{ "type": "Feature", "properties": { "URB_NAME": "'Mamathe", "NOTES": "Growth Centres", "POPUL_DENS": null, "DENSITY": null }, "geometry": { "type": "Point", "coordinates": [ 27.833314820413943, -29.119313367024947 ] } },
{ "type": "Feature", "properties": { "URB_NAME": "Teyateyaneng", "NOTES": "Urban", "POPUL_DENS": null, "DENSITY": null }, "geometry": { "type": "Point", "coordinates": [ 27.752595187367262, -29.144147777443983 ] } },
{ "type": "Feature", "properties": { "URB_NAME": "Peka", "NOTES": "Growth Centres", "POPUL_DENS": null, "DENSITY": null }, "geometry": { "type": "Point", "coordinates": [ 27.766255982064319, -28.967822117267158 ] } },
{ "type": "Feature", "properties": { "URB_NAME": "Maseru", "NOTES": "Urban", "POPUL_DENS": null, "DENSITY": null }, "geometry": { "type": "Point", "coordinates": [ 27.512919614620454, -29.324198134120046 ] } },
{ "type": "Feature", "properties": { "URB_NAME": "Masianokeng", "NOTES": "Growth Centres", "POPUL_DENS": null, "DENSITY": null }, "geometry": { "type": "Point", "coordinates": [ 27.555141856261507, -29.413602882345437 ] } },
{ "type": "Feature", "properties": { "URB_NAME": "Roma", "NOTES": "Growth Centres", "POPUL_DENS": null, "DENSITY": null }, "geometry": { "type": "Point", "coordinates": [ 27.716580857044786, -29.449613497678097 ] } },
{ "type": "Feature", "properties": { "URB_NAME": "Likalaneng", "NOTES": "Growth Centres", "POPUL_DENS": null, "DENSITY": null }, "geometry": { "type": "Point", "coordinates": [ 28.064295850783932, -29.46327340038582 ] } },
{ "type": "Feature", "properties": { "URB_NAME": "Ha Mants'ebo", "NOTES": "Growth Centres", "POPUL_DENS": null, "DENSITY": null }, "geometry": { "type": "Point", "coordinates": [ 27.522853784943472, -29.488106682000332 ] } },
{ "type": "Feature", "properties": { "URB_NAME": "Morija", "NOTES": "Growth Centres", "POPUL_DENS": null, "DENSITY": null }, "geometry": { "type": "Point", "coordinates": [ 27.515402291300141, -29.624697146771357 ] } },
{ "type": "Feature", "properties": { "URB_NAME": "Matsieng", "NOTES": "Growth Centres", "POPUL_DENS": null, "DENSITY": null }, "geometry": { "type": "Point", "coordinates": [ 27.565075926993973, -29.60731302797997 ] } },
{ "type": "Feature", "properties": { "URB_NAME": "Motsekuoa", "NOTES": "Growth Centres", "POPUL_DENS": null, "DENSITY": null }, "geometry": { "type": "Point", "coordinates": [ 27.444617195521424, -29.697959150991156 ] } },
{ "type": "Feature", "properties": { "URB_NAME": "Rothe", "NOTES": "Growth Centres", "POPUL_DENS": null, "DENSITY": null }, "geometry": { "type": "Point", "coordinates": [ 27.459519763763751, -29.551434829347247 ] } },
{ "type": "Feature", "properties": { "URB_NAME": "Marakabei", "NOTES": "Growth Centres", "POPUL_DENS": null, "DENSITY": null }, "geometry": { "type": "Point", "coordinates": [ 28.136322264809646, -29.550194785373755 ] } },
{ "type": "Feature", "properties": { "URB_NAME": "Semonkong", "NOTES": "Urban", "POPUL_DENS": null, "DENSITY": null }, "geometry": { "type": "Point", "coordinates": [ 28.053118083465019, -29.842001634738985 ] } },
{ "type": "Feature", "properties": { "URB_NAME": "Thaba-Tseka", "NOTES": "Urban", "POPUL_DENS": null, "DENSITY": null }, "geometry": { "type": "Point", "coordinates": [ 28.60077036269336, -29.5104604679297 ] } },
{ "type": "Feature", "properties": { "URB_NAME": "Katse", "NOTES": "Growth Centres", "POPUL_DENS": null, "DENSITY": null }, "geometry": { "type": "Point", "coordinates": [ 28.493972679731925, -29.340343021564841 ] } },
{ "type": "Feature", "properties": { "URB_NAME": "Mapholaneng", "NOTES": "Growth Centres", "POPUL_DENS": null, "DENSITY": null }, "geometry": { "type": "Point", "coordinates": [ 28.878943300487418, -29.207478682726684 ] } },
{ "type": "Feature", "properties": { "URB_NAME": "Qacha's Nek", "NOTES": "Urban", "POPUL_DENS": null, "DENSITY": null }, "geometry": { "type": "Point", "coordinates": [ 28.682729979207426, -30.101525332594289 ] } },
{ "type": "Feature", "properties": { "URB_NAME": "Mount Moorosi", "NOTES": "Growth Centres", "POPUL_DENS": null, "DENSITY": null }, "geometry": { "type": "Point", "coordinates": [ 27.86435703511825, -30.272882581847799 ] } },
{ "type": "Feature", "properties": { "URB_NAME": "(Moyeni) Quthing", "NOTES": "Urban", "POPUL_DENS": null, "DENSITY": null }, "geometry": { "type": "Point", "coordinates": [ 27.71036846808807, -30.402022525527347 ] } },
{ "type": "Feature", "properties": { "URB_NAME": "Mohale's Hoek", "NOTES": "Urban", "POPUL_DENS": null, "DENSITY": null }, "geometry": { "type": "Point", "coordinates": [ 27.469452432193034, -30.151191669708073 ] } },
{ "type": "Feature", "properties": { "URB_NAME": "Mafeteng", "NOTES": "Urban", "POPUL_DENS": null, "DENSITY": null }, "geometry": { "type": "Point", "coordinates": [ 27.238471426354636, -29.819648372170533 ] } },
{ "type": "Feature", "properties": { "URB_NAME": "Matelile", "NOTES": "Growth Centres", "POPUL_DENS": null, "DENSITY": null }, "geometry": { "type": "Point", "coordinates": [ 27.509192469234137, -29.809715220123799 ] } },
{ "type": "Feature", "properties": { "URB_NAME": "Lejone", "NOTES": "Growth Centres", "POPUL_DENS": null, "DENSITY": null }, "geometry": { "type": "Point", "coordinates": [ 28.484514055327189, -29.107450569075933 ] } },
{ "type": "Feature", "properties": { "URB_NAME": "Ketane", "NOTES": "Growth Centres", "POPUL_DENS": null, "DENSITY": null }, "geometry": { "type": "Point", "coordinates": [ 27.85523477306366, -30.069196273930483 ] } },
{ "type": "Feature", "properties": { "URB_NAME": "Mphaki (Ts'itsong)", "NOTES": "Growth Centres", "POPUL_DENS": null, "DENSITY": null }, "geometry": { "type": "Point", "coordinates": [ 28.130680717184951, -30.195738776088167 ] } },
{ "type": "Feature", "properties": { "URB_NAME": "Mphaki (Mahlomola)", "NOTES": "Growth Centres", "POPUL_DENS": null, "DENSITY": null }, "geometry": { "type": "Point", "coordinates": [ 28.157394048656727, -30.188107120742107 ] } },
{ "type": "Feature", "properties": { "URB_NAME": "Sehlabathebe", "NOTES": "Growth Centres", "POPUL_DENS": null, "DENSITY": null }, "geometry": { "type": "Point", "coordinates": [ 29.039554367438026, -29.920649185012099 ] } },
{ "type": "Feature", "properties": { "URB_NAME": "Mahobong", "NOTES": "Growth Centres", "POPUL_DENS": null, "DENSITY": null }, "geometry": { "type": "Point", "coordinates": [ 28.165679883125634, -28.932808546671197 ] } },
{ "type": "Feature", "properties": { "URB_NAME": "Ramabanta", "NOTES": "Growth Centres", "POPUL_DENS": null, "DENSITY": null }, "geometry": { "type": "Point", "coordinates": [ 27.792528001273851, -29.660314701341544 ] } },
{ "type": "Feature", "properties": { "URB_NAME": "Sehonghong", "NOTES": "Growth Centres", "POPUL_DENS": null, "DENSITY": null }, "geometry": { "type": "Point", "coordinates": [ 28.765424678070012, -29.7262351432082 ] } },
{ "type": "Feature", "properties": { "URB_NAME": "Thabana-Morena", "NOTES": "Growth Centres", "POPUL_DENS": null, "DENSITY": null }, "geometry": { "type": "Point", "coordinates": [ 27.407219265615485, -29.879475289884965 ] } },
{ "type": "Feature", "properties": { "URB_NAME": null, "NOTES": null, "POPUL_DENS": null, "DENSITY": null }, "geometry": { "type": "Point", "coordinates": [ 27.510456145361211, -29.320663764529638 ] } },
{ "type": "Feature", "properties": { "URB_NAME": null, "NOTES": null, "POPUL_DENS": null, "DENSITY": null }, "geometry": { "type": "Point", "coordinates": [ 28.110057968416797, -28.804970486031294 ] } },
{ "type": "Feature", "properties": { "URB_NAME": null, "NOTES": null, "POPUL_DENS": null, "DENSITY": null }, "geometry": { "type": "Point", "coordinates": [ 28.495813121507261, -29.341629373239623 ] } }
]
}
